City,Cloudiness,Country,Date,Humidity,Lat,Lng,Max Temp,Wind Speed,Hotel Name
rikitea,100,PF,1580258793,80,-23.12,-134.97,79.59,10.31,
neuquen,50,AR,1580258943,20,-38.95,-68.06,77.0,13.87,El Olivo Hotel Zico Gourmet Restaurant
hobart,75,AU,1580258736,43,-42.88,147.33,73.4,16.11,Hotel Grand Chancellor Hobart
jamestown,57,SH,1580258948,79,-15.94,-5.72,74.73,11.95,Richards Travel Lodge
new norfolk,75,AU,1580258852,43,-42.78,147.06,73.4,16.11,SubwayÂ® Restaurant
